{
"type": "FeatureCollection",
"name": "annelids",
"crs": { "type": "name", "properties": { "name": "urn:ogc:def:crs:OGC:1.3:CRS84" } },
"features": [
{ "type": "Feature", "properties": { "locationID": 1510240001.0, "locality": "正東路", "label": 10 }, "geometry": { "type": "Point", "coordinates": [ 120.6891, 23.7229 ] } },
{ "type": "Feature", "properties": { "locationID": 1510900001.0, "locality": "三分橋", "label": 10 }, "geometry": { "type": "Point", "coordinates": [ 120.8658, 23.8432 ] } },
{ "type": "Feature", "properties": { "locationID": 1510200010.0, "locality": "南雲大橋", "label": 10 }, "geometry": { "type": "Point", "coordinates": [ 120.649, 23.761 ] } },
{ "type": "Feature", "properties": { "locationID": 1630000011.0, "locality": "曾文溪橋", "label": 15 }, "geometry": { "type": "Point", "coordinates": [ 120.34, 23.16 ] } },
{ "type": "Feature", "properties": { "locationID": 1630000012.0, "locality": "麻善大橋", "label": 15 }, "geometry": { "type": "Point", "coordinates": [ 120.07, 23.05 ] } },
{ "type": "Feature", "properties": { "locationID": 1630000007.0, "locality": "曾文一號橋", "label": 15 }, "geometry": { "type": "Point", "coordinates": [ 120.49, 23.19 ] } },
{ "type": "Feature", "properties": { "locationID": 1630100017.0, "locality": "三埔上游", "label": 15 }, "geometry": { "type": "Point", "coordinates": [ 120.48, 23.09 ] } },
{ "type": "Feature", "properties": { "locationID": 1630100019.0, "locality": "坑口", "label": 15 }, "geometry": { "type": "Point", "coordinates": [ 120.48, 23.11 ] } }
]
}
